{
  "data": [
    {
      "latitude": 43.597781,
      "longitude": 1.444807,
      "title": "Parking des Carmes",
      "type": "PARKING",
      "content": "",
      "address": "1 place des Carmes"
    },
    {
      "latitude": 43.600511,
      "longitude": 1.444767,
      "title": "Parking Esquirol",
      "type": "PARKING",
      "content": "",
      "address": "14 place Esquirol"
    },
    {
      "latitude": 43.604013,
      "longitude": 1.443878,
      "title": "Parking du Capitole",
      "type": "PARKING",
      "content": "",
      "address": "11 place du Capitole"
    },
    {
      "latitude": 48.843131,
      "longitude": 2.324159,
      "title": "Parking Tour Montparnasse",
      "type": "PARKING",
      "content": "",
      "address": "11 rue de l'Arriv√©e"
    },
    {
      "latitude": 48.841324,
      "longitude": 2.331712,
      "title": "Parking Indigo",
      "type": "PARKING",
      "content": "",
      "address": "120 Boulevard du Montparnasse"
    },
    {
      "latitude": 48.843160,
      "longitude": 2.316692,
      "title": "Parking Zenpark Paris",
      "type": "PARKING",
      "content": "",
      "address": "6 Rue Dulac"
    },
    {
      "latitude": 48.863206,
      "longitude": 2.340237,
      "title": "Parking Indigo",
      "type": "PARKING",
      "content": "",
      "address": "14 Rue Croix des Petits Champs"
    },
    {
      "latitude": 48.866467,
      "longitude": 2.336975,
      "title": "Ector Parking",
      "type": "PARKING",
      "content": "",
      "address": "10 Rue Villedo"
    },
    {
      "latitude": 48.859395,
      "longitude": 2.344185,
      "title": "Qpark",
      "type": "PARKING",
      "content": "",
      "address": "2 Rue Boucher"
    }
  ]
}
